{"data":[{"name":"中油永錡中正站","lat":25.0285418,"lng":121.4199185,"address":"新北市新莊區中正路692之8號","type":"gas_station"},{"name":"中油永錡大安站","lat":24.9838046,"lng":121.4120225,"address":"新北市樹林區大安路576號","type":"gas_station"},{"name":"勝利橋和加油站","lat":25.005498,"lng":121.4892586,"address":"新北市中和區橋和路81號","type":"gas_station"},{"name":"台灣中油寶島站","lat":24.933922,"lng":121.21461499999998,"address":"桃園市平鎮區中豐路580號","type":"gas_station"},{"name":"中油永錡保安站","lat":24.9961691,"lng":121.4210434,"address":"新北市樹林區大安路179號","type":"gas_station"},{"name":"來翔加油站","lat":24.9909739,"lng":121.31496100000004,"address":"桃園市桃園區民生路33號","type":"gas_station"},{"name":"車容坊三重加油站","lat":25.0705694,"lng":121.47556,"address":"新北市三重區中正北路237號","type":"gas_station"},{"name":"柑園北大加油站","lat":24.9460652,"lng":121.38530779999996,"address":"新北市樹林區佳園路三段227號","type":"gas_station"},{"name":"思源東林加油站","lat":24.9565301,"lng":121.3643031,"address":"新北市鶯歌區中正一路461-5號","type":"gas_station"},{"name":"車容坊頂埔加油站","lat":24.9618726,"lng":121.4226604,"address":"新北市土城區中央路四段43號","type":"gas_station"},{"name":"中油草溪路加油站","lat":23.9607255,"lng":120.6738871,"address":"南投縣草屯鎮草溪路154之37號","type":"gas_station"},{"name":"中油興豐路加油站","lat":24.945494,"lng":121.3160195,"address":"桃園市八德區大竹里興豐路1810號","type":"gas_station"},{"name":"思源長庚加油站","lat":25.0488665,"lng":121.3850574,"address":"桃園市龜山區文化一路103號","type":"gas_station"},{"name":"思源南強加油站","lat":24.9929159,"lng":121.3326533,"address":"桃園市龜山區自強南路760號","type":"gas_station"},{"name":"思源東南加油站","lat":25.0003827,"lng":121.6088868,"address":"新北市深坑區北深路三段25巷14號","type":"gas_station"},{"name":"石碇加油站","lat":25.0087063,"lng":121.6443286,"address":"新北市石碇區文山路一段8號","type":"gas_station"},{"name":"饒明加油站","lat":23.9410844,"lng":120.57610299999999,"address":"彰化縣員林市員集路二段227號","type":"gas_station"},{"name":"富國路加油站","lat":25.0464404,"lng":121.26567679999994,"address":"桃園市蘆竹區富國路二段571號","type":"gas_station"},{"name":"延吉加油站","lat":24.988388,"lng":121.469379,"address":"新北市土城區金城路三段202-8號","type":"gas_station"},{"name":"思源龍形加油站","lat":25.1568945,"lng":121.4358584,"address":"新北市八里區龍米路二段150號","type":"gas_station"},{"name":"中油竹村加油站","lat":23.4918661,"lng":120.3980913,"address":"嘉義市西區竹村里北港路1335之30號","type":"gas_station"},{"name":"中油生曜加油站","lat":24.8728368,"lng":121.2136949,"address":"桃園市龍潭區中豐路117號","type":"gas_station"},{"name":"中油彰秀加油站","lat":24.041219,"lng":120.504392,"address":"彰化縣秀水鄉彰水路一段283號","type":"gas_station"},{"name":"勝利加油站","lat":25.0310259,"lng":121.5379503,"address":"台北市大安區建國南路二段75-1號","type":"gas_station"},{"name":"光明路加油站","lat":24.1983873,"lng":120.64257889999999,"address":"台中市西屯區廣福路191號","type":"gas_station"},{"name":"金界加油站","lat":24.0455253,"lng":120.42840030000002,"address":"彰化縣福興鄉沿海路五段112號","type":"gas_station"},{"name":"中油圓環東路加油站","lat":24.2551065,"lng":120.7300083,"address":"台中市豐原區南村里圓環東路850號","type":"gas_station"},{"name":"大成路加油站","lat":23.8950968,"lng":120.3650824,"address":"彰化縣二林鎮大成路一段456號","type":"gas_station"},{"name":"長興路加油站","lat":25.0732688,"lng":121.28051729999993,"address":"桃園市蘆竹區長興路三段70號","type":"gas_station"},{"name":"車容坊三富加油站","lat":24.9579164,"lng":121.2489415,"address":"桃園市中壢區普忠路357號","type":"gas_station"},{"name":"中油正成加油站","lat":24.8588577,"lng":120.9951039,"address":"新竹縣竹北市中華路1301號","type":"gas_station"},{"name":"中油長安加油站","lat":24.1925173,"lng":120.6229079,"address":"台中市西屯區福雅路300號","type":"gas_station"},{"name":"思源中泰加油站","lat":25.0569684,"lng":121.43607369999995,"address":"新北市泰山區泰林路二段32號","type":"gas_station"},{"name":"中油左新站","lat":22.6770567,"lng":120.2994069,"address":"高雄市左營區政德路171號","type":"gas_station"},{"name":"車容坊大業加油站","lat":25.121438,"lng":121.4991133,"address":"台北市北投區大度路2號","type":"gas_station"},{"name":"中油鳳東路站","lat":22.7596684,"lng":120.3651574,"address":"高雄市燕巢區鳳東路77號","type":"gas_station"},{"name":"車容坊梅新加油站","lat":24.908418,"lng":121.15757,"address":"桃園市楊梅區中山北路一段349號","type":"gas_station"},{"name":"台灣中油石牌愛心站","lat":25.1126873,"lng":121.5088138,"address":"台北市北投區承德路七段139號","type":"gas_station"},{"name":"中油高雄自由站","lat":22.6523952,"lng":120.3086869,"address":"高雄市三民區自由一路231號","type":"gas_station"},{"name":"中油興安路加油站","lat":24.1710783,"lng":120.6940728,"address":"台中市北屯區文心路四段932號","type":"gas_station"},{"name":"中油美吉站","lat":23.0173421,"lng":120.2386519,"address":"台南市永康區中山南路428號","type":"gas_station"},{"name":"中油森竹站","lat":23.7622364,"lng":120.6965274,"address":"南投縣竹山鎮集山路三段438號","type":"gas_station"},{"name":"思源信誠加油站","lat":25.081729,"lng":121.4405184,"address":"新北市五股區新五路二段258號","type":"gas_station"},{"name":"思源正洋加油站","lat":24.9981389,"lng":121.6129169,"address":"新北市深坑區文山路三段15號","type":"gas_station"},{"name":"永加加油站","lat":25.0935,"lng":121.26781200000005,"address":"桃園市蘆竹區海山路一段88號","type":"gas_station"},{"name":"中油永錡站","lat":25.0577073,"lng":121.4354919,"address":"新北市泰山區泰林路2段47號","type":"gas_station"},{"name":"中油彭厝站","lat":24.9717133,"lng":121.4153195,"address":"新北市樹林區八德街395號","type":"gas_station"},{"name":"中油元寶加油站","lat":24.2146456,"lng":120.6687861,"address":"台中市大雅區昌平路三段707號","type":"gas_station"},{"name":"中油彰南路加油站","lat":23.8643084,"lng":120.6932488,"address":"南投縣名間鄉東湖村彰南路335之3號","type":"gas_station"},{"name":"中油高楠站","lat":22.6713109,"lng":120.3174958,"address":"高雄市左營區民族一路697號","type":"gas_station"},{"name":"思源聯新加油站","lat":25.0322267,"lng":121.4177847,"address":"新北市新莊區新北大道七段120號","type":"gas_station"},{"name":"柑園加油站","lat":24.9623756,"lng":121.3916385,"address":"新北市樹林區佳園路二段47號","type":"gas_station"},{"name":"車容坊文二加油站","lat":25.0748833,"lng":121.3722985,"address":"新北市林口區文化二路一段413號","type":"gas_station"},{"name":"中油正晟加油站","lat":24.7747647,"lng":121.0718722,"address":"新竹縣芎林鄉文明路61號","type":"gas_station"},{"name":"柑園三峽加油站","lat":24.9341719,"lng":121.38770699999998,"address":"新北市三峽區介壽路一段385號","type":"gas_station"},{"name":"思源龍門加油站","lat":24.8685375,"lng":121.2212535,"address":"桃園市龍潭區大昌路二段13號","type":"gas_station"},{"name":"中油彰化金山站","lat":24.106193,"lng":120.530952,"address":"彰化縣和美鎮彰新路三段99號","type":"gas_station"},{"name":"中油北基忠義路加油站","lat":25.0119975,"lng":121.3474263,"address":"桃園市龜山區忠義路一段496號","type":"gas_station"},{"name":"柑園迴龍二加油站","lat":25.0164126,"lng":121.3996939,"address":"桃園市龜山區萬壽路一段426-2號","type":"gas_station"},{"name":"中油龍壽加油站","lat":24.9872915,"lng":121.267681,"address":"桃園市桃園區龍山里1鄰龍壽街215-10號","type":"gas_station"},{"name":"車容坊辛亥加油站","lat":25.0060523,"lng":121.5579679,"address":"台北市文山區辛亥路四段100號","type":"gas_station"},{"name":"中油中庄加油站","lat":24.089466,"lng":120.5661127,"address":"彰化縣彰化市中山路三段480號","type":"gas_station"},{"name":"台灣中油士香站","lat":24.895664,"lng":121.2772827,"address":"桃園市大溪區員林路一段226號","type":"gas_station"},{"name":"中油親親加油站","lat":24.1603006,"lng":120.6917854,"address":"台中市北區金龍里北屯路39號","type":"gas_station"},{"name":"中油好又多加油站","lat":24.004794,"lng":120.6766474,"address":"南投縣草屯鎮新豐里新豐路703號","type":"gas_station"},{"name":"思源思源加油站","lat":25.0144396,"lng":121.3952947,"address":"新北市樹林區三興路50號","type":"gas_station"},{"name":"信興加油站","lat":23.9548042,"lng":120.4914552,"address":"彰化縣溪湖鎮員鹿路二段112號","type":"gas_station"},{"name":"思源建德加油站","lat":25.0086725,"lng":121.6427428,"address":"新北市石碇區文山路一段9號","type":"gas_station"},{"name":"中油東虹崇德站","lat":24.169097,"lng":120.6851962,"address":"台中市北屯區崇德路二段19號","type":"gas_station"},{"name":"國雲停車士林場","lat":25.0921088,"lng":121.5231944,"address":"台北市士林區福德路31號","type":"parkinglot"},{"name":"前港公園地下停車場","lat":25.0859856,"lng":121.5213961,"address":"台北市士林區前港街45號","type":"parkinglot"},{"name":"南投公有停十停車場","lat":23.897379,"lng":120.683412,"address":"南投縣南投市大庄路169號","type":"parkinglot"},{"name":"詮營台中烏日臻愛站","lat":24.1177548,"lng":120.6147565,"address":"台中市烏日區高鐵路三段168號","type":"parkinglot"},{"name":"和雲桃園廣興五街停車場","lat":24.9353197,"lng":121.2826265,"address":"桃園市八德區廣興五街 58 號對面","type":"parkinglot"},{"name":"國雲停車景華公園地下停車場","lat":24.9951135,"lng":121.5438824,"address":"台北市文山區景華街55號","type":"parkinglot"},{"name":"西松高中地下停車場","lat":25.0558398,"lng":121.56609260000005,"address":"台北市松山區健康路325巷19弄1號","type":"parkinglot"},{"name":"進安公園地下停車場","lat":25.0461039,"lng":121.53772349999997,"address":"台北市中山區八德路二段158號","type":"parkinglot"},{"name":"聖若望平面停車場","lat":25.0101219,"lng":121.451848,"address":"新北市板橋區南雅西路二段7巷","type":"parkinglot"},{"name":"洛陽綜合立體停車場","lat":25.0474165,"lng":121.5049876,"address":"台北市萬華區環河南路一段9號旁","type":"parkinglot"},{"name":"嘟嘟房市民大道中林段停車場","lat":25.0478207,"lng":121.5224765,"address":"台北市中山區市民大道二段18號","type":"parkinglot"},{"name":"國雲停車好來停車場","lat":25.030538,"lng":121.4290766,"address":"新北市新莊區中正路655號","type":"parkinglot"},{"name":"和雲高雄桂林街停車場","lat":22.6155,"lng":120.3164,"address":"高雄市前鎮區桂林街四巷29號","type":"parkinglot"},{"name":"忠信地下停車場","lat":25.0402212,"lng":121.5684011,"address":"台北市信義區松仁路2號","type":"parkinglot"},{"name":"捷運頂埔站轉乘停車場","lat":24.958892,"lng":121.419803,"address":"新北市土城區中央路4段51-6號","type":"parkinglot"},{"name":"青年公園高爾夫球場地下停車場","lat":25.0250848,"lng":121.5074436,"address":"台北市萬華區國興路5號","type":"parkinglot"},{"name":"港富立體停車場","lat":25.080545,"lng":121.578286,"address":"台北市內湖區內湖路一段737巷50弄32號","type":"parkinglot"},{"name":"建成國中地下停車場","lat":25.0503038,"lng":121.5195352,"address":"台北市大同區長安西路37-1號","type":"parkinglot"},{"name":"全方位停車場中正二站","lat":25.015407,"lng":121.298684,"address":"桃園市桃園區同德里中正路1047號","type":"parkinglot"},{"name":"詮營內湖特力場","lat":25.062386,"lng":121.574689,"address":"台北市內湖區新湖三路23號","type":"parkinglot"},{"name":"和雲旗山轉運站停車場","lat":22.8842676,"lng":120.4848036,"address":"高雄市旗山區大仁街48號","type":"parkinglot"},{"name":"英士路平面停車場","lat":25.023698,"lng":121.460463,"address":"新北市板橋區新海路137號前","type":"parkinglot"},{"name":"和雲台北浦城街停車場","lat":25.0228412,"lng":121.5268775,"address":"台北市大安區浦城街37號","type":"parkinglot"},{"name":"百里亭萬壽停車場","lat":24.9968256,"lng":121.3437018,"address":"桃園市龜山區中和路126號","type":"parkinglot"},{"name":"民生立體停車場","lat":25.0583435,"lng":121.55946189999997,"address":"台北市松山區民生東路五段84號","type":"parkinglot"},{"name":"詮營停車淡海影城","lat":25.2004653,"lng":121.4383711,"address":"新北市淡水區義山路二段303號","type":"parkinglot"},{"name":"詮營新莊特力場","lat":25.029083,"lng":121.422621,"address":"新北市新莊區中正路620號","type":"parkinglot"},{"name":"䡛轉福田一街停車場","lat":24.1079157,"lng":120.6518469,"address":"台中市南區福田一街207號","type":"parkinglot"},{"name":"國雲竹北斗星停車場","lat":24.8271367,"lng":121.0041629,"address":"新竹縣竹北市光明十街一段141號","type":"parkinglot"},{"name":"建國北路高架橋下H區","lat":25.0602754,"lng":121.53723,"address":"台北市中山區建國北路二段216號","type":"parkinglot"},{"name":"建國北路高架橋下J區","lat":25.06603,"lng":121.536166,"address":"台北市中山區建國北路三路78號","type":"parkinglot"},{"name":"北台新豐停車場","lat":24.8769,"lng":120.9926,"address":"新竹縣新豐鄉建興路一段201巷9-1號","type":"parkinglot"},{"name":"和雲高雄廣西路停車場","lat":22.6153598,"lng":120.317453,"address":"高雄市前鎮區廣西路169號","type":"parkinglot"},{"name":"品泰高雄興中站","lat":22.614834,"lng":120.302267,"address":"高雄市苓雅區興中二路47號","type":"parkinglot"},{"name":"府前廣場地下停車場","lat":25.0359708,"lng":121.5629617,"address":"台北市信義區松壽路一號","type":"parkinglot"},{"name":"市民大道延吉段","lat":25.044386,"lng":121.5521936,"address":"臺北市松山區市民大道四段","type":"parkinglot"},{"name":"康樂立體停車場","lat":25.0719261,"lng":121.6190998,"address":"台北市內湖區康樂街138號","type":"parkinglot"},{"name":"和雲台北忠誠一停車場","lat":25.1074326,"lng":121.5296195,"address":"台北市士林區德行東路132巷3弄7號","type":"parkinglot"},{"name":"鳳凰花園地下停車場","lat":25.036151,"lng":121.444902,"address":"新北市新莊區中正路340號","type":"parkinglot"},{"name":"民權公園地下停車場","lat":25.062218,"lng":121.5588253,"address":"台北市松山區民權東路四段180號","type":"parkinglot"},{"name":"和雲台中自由路停車場","lat":24.1423577,"lng":120.692427,"address":"台中市東區進德路87號","type":"parkinglot"},{"name":"國雲停車世貿財星停車場","lat":24.958652,"lng":121.219962,"address":"桃園縣中壢市中央西路一段120號","type":"parkinglot"},{"name":"成淵高中地下停車場","lat":25.0603548,"lng":121.5201395,"address":"台北市大同區承德路二段235號","type":"parkinglot"},{"name":"全方位停車場中正五站","lat":25.029385,"lng":121.292857,"address":"桃園市桃園區中正路1650號","type":"parkinglot"},{"name":"和雲台中豐原停車場","lat":24.256604,"lng":120.725992,"address":"台中市豐原區直興街233號","type":"parkinglot"},{"name":"朝陽公園地下停車場","lat":25.0561236,"lng":121.5138266,"address":"台北市大同區重慶北路二段68號B1","type":"parkinglot"},{"name":"五都重平停車場","lat":22.685089,"lng":120.310857,"address":"813高雄市左營區華夏路1273號對面","type":"parkinglot"},{"name":"和雲高雄五甲停車場","lat":22.6192,"lng":120.3507,"address":"高雄市鳳山區國泰路二段50巷底","type":"parkinglot"},{"name":"啟聰學校地下停車場","lat":25.0743313,"lng":121.5115692,"address":"台北市大同區延平北路四段205號","type":"parkinglot"},{"name":"立農公園地下停車場","lat":25.1183601,"lng":121.5030065,"address":"台北市北投區承德路七段372號","type":"parkinglot"},{"name":"和雲台北新生停車場","lat":25.0683377,"lng":121.5310407,"address":"台北市中山區民族東路41號","type":"parkinglot"},{"name":"鼎豐大樹藥局中山場","lat":24.9909369,"lng":121.290307,"address":"桃園市桃園區中山路828號","type":"parkinglot"},{"name":"新埔國小停車場","lat":25.0256195,"lng":121.4624941,"address":"新北市板橋區陽明街206號","type":"parkinglot"},{"name":"詮營嘉義二站場","lat":23.4619993,"lng":120.3239084,"address":"嘉義縣太保市高鐵西路","type":"parkinglot"},{"name":"建國北路高架橋下A區","lat":25.0495712,"lng":121.5369985,"address":"台北市中山區建國北路一段43號","type":"parkinglot"},{"name":"國雲兒童育樂中心停車場","lat":25.0749053,"lng":121.5213507,"address":"台北市中山區玉門街33號","type":"parkinglot"},{"name":"和雲基隆西定停車場","lat":25.1331688,"lng":121.7354794,"address":"基隆市中山區西定路90號旁空地","type":"parkinglot"},{"name":"大豐公園地下停車場","lat":25.1311187,"lng":121.50424550000002,"address":"台北市北投區大興街145號","type":"parkinglot"},{"name":"建國南路高架橋下B區","lat":25.0288372,"lng":121.5378486,"address":"台北市大安區建國南路二段151巷","type":"parkinglot"},{"name":"和雲雷中停車場","lat":24.1826978,"lng":120.6688775,"address":"台中市北屯區雷中街47巷1號","type":"parkinglot"},{"name":"松山車站地下停車場","lat":25.0481758,"lng":121.5785563,"address":"台北市信義區松隆路319號","type":"parkinglot"},{"name":"和雲新北興南路停車場","lat":24.9904,"lng":121.5114,"address":"新北市中和區興南路一段23號旁","type":"parkinglot"},{"name":"建國南路高架橋下E區","lat":25.0342786,"lng":121.5380789,"address":"台北市大安區建國南路一段341巷","type":"parkinglot"},{"name":"國雲停車廣停一平面停車場","lat":24.9649135,"lng":121.2246445,"address":"桃園市中壢區慈惠三街157巷2號","type":"parkinglot"},{"name":"詮營平鎮特力場","lat":24.9403414,"lng":121.2151112,"address":"桃園市平鎮市環南路二段261號","type":"parkinglot"},{"name":"松山國小地下停車場","lat":25.0503715,"lng":121.5781307,"address":"台北市松山區八德路四段746號","type":"parkinglot"},{"name":"國雲停車正光二街平面停車場","lat":24.9594056,"lng":121.2054529,"address":"桃園市中壢區正光二街116號","type":"parkinglot"},{"name":"國雲三重停八停車場","lat":25.053891,"lng":121.476707,"address":"新北市三重區五穀王北街189號","type":"parkinglot"},{"name":"和雲台南富農街停車場","lat":22.983594,"lng":120.235098,"address":"台南市東區富農街一段209號旁空地","type":"parkinglot"},{"name":"洲子立體停車場","lat":25.0792886,"lng":121.5693113,"address":"台北市內湖區瑞光路513巷22弄2號","type":"parkinglot"},{"name":"萬華國中地下停車場","lat":25.0293401,"lng":121.4995,"address":"台北市萬華區西藏路201號","type":"parkinglot"},{"name":"和雲宜蘭蘭陽博物館停車場","lat":24.8699004,"lng":121.8355026,"address":"宜蘭縣頭城鎮青雲路三段750號","type":"parkinglot"},{"name":"和雲健康公園地下停車場","lat":24.1191825,"lng":120.6672668,"address":"台中市南區美村南路8號","type":"parkinglot"},{"name":"信義廣場地下停車場松廉路出入口","lat":25.0339971,"lng":121.5665823,"address":"台北市信義區信義路五段11號","type":"parkinglot"},{"name":"金華公園地下停車場","lat":25.0299947,"lng":121.53155270000002,"address":"台北市大安區金華街254巷1號","type":"parkinglot"},{"name":"詮營信義101場","lat":25.0327285,"lng":121.5643186,"address":"台北市信義區信義路五段100號","type":"parkinglot"},{"name":"興隆公園地下停車場","lat":25.0007502,"lng":121.5512252,"address":"台北市文山區仙岩路128號","type":"parkinglot"},{"name":"建國北路高架橋下O區","lat":25.0467989,"lng":121.5364524,"address":"台北市中山區建國北路一段20巷2號","type":"parkinglot"},{"name":"詮營新竹忠孝場","lat":24.8022571,"lng":120.9908829,"address":"新竹市東區忠孝路60號","type":"parkinglot"},{"name":"和雲水安宮地下停車場","lat":24.153599,"lng":120.646253,"address":"台中市南屯區文心路一段517號","type":"parkinglot"},{"name":"國雲中山北路停車場","lat":25.0679334,"lng":121.5243911,"address":"台北市中山區中山北路三段55巷10號","type":"parkinglot"},{"name":"建國南路高架橋下H區","lat":25.0398192,"lng":121.538122,"address":"台北市大安區建國南路一段","type":"parkinglot"},{"name":"蓬萊國小地下停車場（平陽街入口）","lat":25.0563873,"lng":121.5157097,"address":"台北市大同區寧夏路35號","type":"parkinglot"},{"name":"詮營恩主公二站場","lat":24.9368708,"lng":121.3622127,"address":"新北市三峽區中山路257巷16號","type":"parkinglot"},{"name":"北台明德停車場","lat":25.0901626,"lng":121.7061164,"address":"基隆市七堵區明德二路10號","type":"parkinglot"},{"name":"捷運永寧站轉乘停車場","lat":24.965661,"lng":121.436342,"address":"新北市土城區中央路3段105號","type":"parkinglot"},{"name":"興雅國中地下停車場","lat":25.0347609,"lng":121.5727525,"address":"台北市信義區松德路200巷18號","type":"parkinglot"},{"name":"百里亭民權停車場","lat":25.0692656,"lng":121.5805014,"address":"台北市內湖區民權東路六段21巷46號","type":"parkinglot"},{"name":"和雲高雄仁武竹後停車場","lat":22.7064457,"lng":120.3372714,"address":"高雄市仁武區水管路239號","type":"parkinglot"},{"name":"詮營首泰堤頂場","lat":25.0812607,"lng":121.5623591,"address":"台北市內湖區堤頂大道二段473號","type":"parkinglot"},{"name":"玉成公園地下停車場","lat":25.0423254,"lng":121.5871582,"address":"台北市南港區成福路118號","type":"parkinglot"},{"name":"南港國小地下停車場","lat":25.05643,"lng":121.6111908,"address":"台北市南港區興東街59號","type":"parkinglot"},{"name":"和雲新莊生命紀念館停車場","lat":25.0312,"lng":121.4161,"address":"新北市新莊區壽山路162-1號","type":"parkinglot"},{"name":"富安三街停車場","lat":23.081034,"lng":120.289246,"address":"台南市新市區富安三街與富安路口","type":"parkinglot"},{"name":"國雲百齡橋旁平面停車場","lat":25.0883956,"lng":121.5104375,"address":"111台灣台北市士林區社中街47號","type":"parkinglot"},{"name":"培宸林森平面停車場","lat":25.0608505,"lng":121.5255517,"address":"台北市中山區林森北路450號","type":"parkinglot"},{"name":"五分埔公園地下停車場","lat":25.046805,"lng":121.5806028,"address":"台北市信義區中坡北路57號","type":"parkinglot"},{"name":"和雲新北泰山明志國民小學停車場","lat":25.0452921,"lng":121.4274495,"address":"新北市泰山區新生路 2 號","type":"parkinglot"},{"name":"和雲宜蘭礁溪轉運站停車場","lat":24.8310872,"lng":121.7773198,"address":"宜蘭縣礁溪鄉礁溪路6段17號","type":"parkinglot"},{"name":"富誠民生停車場","lat":25.0580313,"lng":121.5444487,"address":"台北市松山區民生東路三段101號","type":"parkinglot"},{"name":"培宸林森機械停車場","lat":25.0607965,"lng":121.5255715,"address":"台北市中山區林森北路450號","type":"parkinglot"},{"name":"附中公園地下停車場","lat":25.0361457,"lng":121.5424791,"address":"台北市大安區復興南路一段340巷11號","type":"parkinglot"},{"name":"詮營高雄小樽場","lat":22.7771123,"lng":120.3004339,"address":"高雄市橋頭區成功北路520號","type":"parkinglot"},{"name":"建成公園地下停車場","lat":25.0540465,"lng":121.5180434,"address":"台北市大同區承德路二段31號","type":"parkinglot"},{"name":"夏合龜山停車場","lat":24.9933289,"lng":121.3320565,"address":"桃園市龜山區萬壽路二段1185號","type":"parkinglot"},{"name":"信義廣場地下停車場信義路出入口","lat":25.0329282,"lng":121.5663461,"address":"台北市信義區信義路五段11號","type":"parkinglot"},{"name":"公益路停車場","lat":24.150754,"lng":120.66883,"address":"台中市西區公益路22號對面","type":"parkinglot"},{"name":"國雲停車南園停車場","lat":24.9715373,"lng":121.22844,"address":"桃園市中壢區南園二路267號","type":"parkinglot"},{"name":"北台舊莊地下停車場","lat":25.041392,"lng":121.619671,"address":"台北市南港區舊莊街一段91巷11號","type":"parkinglot"},{"name":"萬興國小地下停車場","lat":24.9894851,"lng":121.5768839,"address":"台北市文山區秀明路二段116號","type":"parkinglot"},{"name":"大湖公園地下停車場","lat":25.0831828,"lng":121.6021452,"address":"台北市內湖區成功路5段7號","type":"parkinglot"},{"name":"興中立體停車場","lat":25.0560661,"lng":121.60666,"address":"台北市南港區興中路44巷1號","type":"parkinglot"},{"name":"建國北路高架橋下B區","lat":25.0498202,"lng":121.5364875,"address":"台北市中山區建國北路一段84號","type":"parkinglot"},{"name":"榮太平面停車場","lat":24.164907,"lng":120.686549,"address":"台中市北區榮華街177號旁空地","type":"parkinglot"},{"name":"建國南路高架橋下F區","lat":25.0344363,"lng":121.5377454,"address":"台北市大安區建國南路一段336號","type":"parkinglot"},{"name":"雙園國中地下停車場","lat":25.0278124,"lng":121.49159110000005,"address":"台北市萬華區西園路二段320巷55弄3號","type":"parkinglot"},{"name":"東湖國小地下停車場","lat":25.0683589,"lng":121.6160401,"address":"台北市內湖區東湖路115號之一","type":"parkinglot"},{"name":"金福順停車場","lat":24.180522,"lng":120.625577,"address":"台中市西屯區福順路65號","type":"parkinglot"},{"name":"海光公園地下停車場","lat":25.081105,"lng":121.5085325,"address":"台北市士林區葫蘆街83號","type":"parkinglot"},{"name":"濱江國中地下停車場","lat":25.0795366,"lng":121.561715,"address":"台北市中山區樂群二路266巷1號B2","type":"parkinglot"},{"name":"和雲新莊生命紀念館室內停車場","lat":25.0314,"lng":121.4166,"address":"新北市新莊區壽山路162-1號","type":"parkinglot"},{"name":"建國北路高架橋下Ｄ區","lat":25.0539358,"lng":121.537106,"address":"台北市中山區建國北路二段17-19號","type":"parkinglot"},{"name":"建國北路高架橋下IB區","lat":25.0636482,"lng":121.5371989,"address":"台北市中山區建國北路三路53號","type":"parkinglot"},{"name":"全方位停車場大有站","lat":25.013763,"lng":121.316936,"address":"桃園市桃園區興一街65巷71號","type":"parkinglot"},{"name":"建國南路高架橋下C區","lat":25.0320803,"lng":121.5379715,"address":"台北市大安區建國南路二段39巷-79巷","type":"parkinglot"},{"name":"文強停車淡水新民停車場","lat":25.174079,"lng":121.43834,"address":"251新北市淡水區文化路59巷20號之6號（新民街19巷內）","type":"parkinglot"},{"name":"西湖公園地下停車場","lat":25.0843479,"lng":121.5702939,"address":"台北市內湖區內湖路一段387巷38號","type":"parkinglot"},{"name":"陽明市政大樓地下停車場","lat":24.246734,"lng":120.721289,"address":"臺中市豐原區陽明街36號","type":"parkinglot"},{"name":"台灣科學園區停車場","lat":25.0578706,"lng":121.634911,"address":"新北市汐止區大同路一段237號","type":"parkinglot"},{"name":"國雲竹北停二泰和停車場","lat":24.846175,"lng":121.0035998,"address":"新竹縣竹北市泰和一街27巷25號旁","type":"parkinglot"},{"name":"國雲竹北新社國小停車場","lat":24.8434425,"lng":120.9989989,"address":"302新竹縣竹北市新社里40號","type":"parkinglot"},{"name":"鼎豐建一停車場","lat":25.073264,"lng":121.662638,"address":"新北市汐止區建成路80號","type":"parkinglot"},{"name":"國雲停車延平立體停車場","lat":24.9560609,"lng":121.2231712,"address":"桃園市中壢區延平路535號","type":"parkinglot"},{"name":"鼎豐中山二停車場","lat":24.992008,"lng":121.28985,"address":"330桃園市桃園區中山路812巷27弄7號","type":"parkinglot"},{"name":"永盛公園地下停車場","lat":25.059407,"lng":121.5247482,"address":"台北市中山區中山北路二段93巷30號","type":"parkinglot"},{"name":"和雲西門中壽大樓停車場","lat":25.0416908,"lng":121.5086519,"address":"100台北市中正區中華路一段中壽商旅大樓","type":"parkinglot"},{"name":"峨眉立體停車場","lat":25.044298,"lng":121.50573,"address":"台北市萬華區峨眉街83號","type":"parkinglot"},{"name":"麗湖國小地下停車場","lat":25.0733214,"lng":121.6016566,"address":"台北市內湖區金湖路363巷8號","type":"parkinglot"},{"name":"康樂合署大樓地下停車場","lat":25.0723816,"lng":121.6189762,"address":"台北市內湖區康樂街150號","type":"parkinglot"},{"name":"和雲高雄維新東街停車場","lat":22.7937273,"lng":120.2969464,"address":"高雄市岡山區維新東街68號","type":"parkinglot"},{"name":"松山工農地下停車場","lat":25.0389868,"lng":121.5725698,"address":"台北市信義區忠孝東路五段372巷28弄21號","type":"parkinglot"},{"name":"建國南路高架橋下I區","lat":25.0407224,"lng":121.5372575,"address":"台北市大安區建國南路一段175巷","type":"parkinglot"},{"name":"歐維斯停車場環中站","lat":24.957397,"lng":121.248114,"address":"桃園市中壢區環中東路622號後方空地","type":"parkinglot"},{"name":"嘉興公園地下停車場","lat":25.0221072,"lng":121.55187560000002,"address":"台北市大安區嘉興街380號","type":"parkinglot"},{"name":"力揚興隆公宅站","lat":24.9883882,"lng":121.562487,"address":"台北市文山區木柵路二段138巷與興隆路四段101巷","type":"parkinglot"},{"name":"國慶平面停車場","lat":24.9994341,"lng":121.4635587,"address":"新北市板橋區重慶路277號","type":"parkinglot"},{"name":"天母公園平面停車場","lat":25.125368,"lng":121.530788,"address":"台北市士林區中山北路七段191巷23號對面","type":"parkinglot"},{"name":"春上布丁蛋糕文興店停車場","lat":24.8090846,"lng":121.0312485,"address":"新竹縣竹北市文興路一段338號","type":"parkinglot"},{"name":"台鐵南科車站東側停車場","lat":23.1081862,"lng":120.3027253,"address":"台南市新市區西拉雅大道","type":"parkinglot"},{"name":"和雲軍功停車場","lat":24.181948,"lng":120.720407,"address":"台中市北屯區軍功路二段306號","type":"parkinglot"},{"name":"西康地下停車場","lat":25.0847328,"lng":121.56358,"address":"台北市內湖區內湖路一段203巷25號","type":"parkinglot"},{"name":"和雲七堵行政大樓地下停車場","lat":25.0976273,"lng":121.7165311,"address":"基隆市七堵區光明路 21 號 B1 B2","type":"parkinglot"},{"name":"大稻埕公園地下停車場","lat":25.0582629,"lng":121.510479,"address":"台北市大同區歸綏街243號","type":"parkinglot"},{"name":"和雲台中復興路四段一站","lat":24.1369305,"lng":120.6887486,"address":"台中市東區復興路四段269號","type":"parkinglot"},{"name":"臺北市災害應變中心地下停車場","lat":25.0286559,"lng":121.5658616,"address":"台北市信義區莊敬路391巷11弄2號","type":"parkinglot"},{"name":"塔城公園地下停車場","lat":25.0510198,"lng":121.5105301,"address":"台北市大同區塔城街11號","type":"parkinglot"},{"name":"建國南路高架橋下D區","lat":25.0321592,"lng":121.5377701,"address":"台北市大安區建國南路二段39巷","type":"parkinglot"},{"name":"富中街停車場","lat":23.0797027,"lng":120.2881194,"address":"台南市新市區民生路101號","type":"parkinglot"},{"name":"鼎豐復興北停車場","lat":25.0583782,"lng":121.3701822,"address":"桃園市龜山區復興北路57號","type":"parkinglot"},{"name":"五都重和停車場","lat":22.685225,"lng":120.311377,"address":"高雄市左營區華夏路1297號對面","type":"parkinglot"},{"name":"鼎豐新中北停車場","lat":24.956879,"lng":121.249309,"address":"桃園市中壢區新中北路662-1號","type":"parkinglot"},{"name":"詮營桃園春日場","lat":25.0217564,"lng":121.3074261,"address":"桃園市桃園區春日路1463號","type":"parkinglot"},{"name":"大安森林公園地下停車場建國南路出入口","lat":25.0319674,"lng":121.5375071,"address":"台北市大安區建國南路二段2號","type":"parkinglot"},{"name":"國雲停車坤慶公園地下停車場","lat":24.9620033,"lng":121.2298576,"address":"桃園市中壢區溪州路288號","type":"parkinglot"},{"name":"和雲高雄路竹停車場","lat":22.8533139,"lng":120.2656208,"address":"高雄市路竹區新民路6號","type":"parkinglot"},{"name":"全方位停車場八德站","lat":24.951342,"lng":121.296877,"address":"桃園市八德區介壽路二段252巷22號旁空地","type":"parkinglot"},{"name":"景勤二號公園地下停車場","lat":25.0261,"lng":121.5585,"address":"台北市信義區信安街49號","type":"parkinglot"},{"name":"石牌國小地下停車場","lat":25.1143883,"lng":121.5131501,"address":"台北市北投區致遠二路80號","type":"parkinglot"},{"name":"和雲台中正德醫院停車場","lat":24.1437382,"lng":120.6326765,"address":"台中市南屯區益昌五街56號對面","type":"parkinglot"},{"name":"和雲高雄正德停車場","lat":22.6355,"lng":120.3289,"address":"台灣高雄市苓雅區福德二路264巷","type":"parkinglot"},{"name":"國雲停車站前東平面停車場","lat":25.0120852,"lng":121.2187576,"address":"桃園市中壢區青山路","type":"parkinglot"},{"name":"力揚春光公園地下停車場","lat":25.0425595,"lng":121.5811484,"address":"台北市信義區忠孝東路五段666號","type":"parkinglot"},{"name":"板橋區重慶公園地下停車場","lat":24.9997044,"lng":121.4636487,"address":"新北市板橋區重慶路265號","type":"parkinglot"},{"name":"千里亭林森二站","lat":25.0562794,"lng":121.5251105,"address":"台北市中山區林森北路308號","type":"parkinglot"},{"name":"台鐵南科車站西側停車場","lat":23.1076525,"lng":120.3008288,"address":"台南市新市區西拉雅大道","type":"parkinglot"},{"name":"國雲停車博愛停車場","lat":23.9591335,"lng":120.5730695,"address":"彰化縣員林市博愛路113號","type":"parkinglot"},{"name":"山發臨沂一號停車場","lat":25.0357376,"lng":121.5285162,"address":"台北市中正區臨沂街69巷4號","type":"parkinglot"},{"name":"嘟嘟房八德立體站","lat":25.0496671,"lng":121.5716712,"address":"台北市松山區八德路四段568號","type":"parkinglot"},{"name":"福林公園地下停車場","lat":25.0962381,"lng":121.5305642,"address":"台北市士林區中正路17號","type":"parkinglot"},{"name":"和雲台中民生路停車場","lat":24.1362,"lng":120.6791,"address":"台中市西區自由路一段140號","type":"parkinglot"},{"name":"和雲桃園華美一路停車場","lat":24.953423,"lng":121.261196,"address":"桃園市中壢區仁和里華美一路115號","type":"parkinglot"},{"name":"古亭國中地下停車場","lat":25.0239431,"lng":121.5098905,"address":"台北市萬華區中華路二段606巷1號","type":"parkinglot"},{"name":"長安國小地下停車場","lat":25.0505245,"lng":121.5314672,"address":"台北市中山區松江路90巷14號","type":"parkinglot"},{"name":"和雲台中育賢停車場","lat":24.157936,"lng":120.719296,"address":"台中市太平區育賢路與環中東路口","type":"parkinglot"},{"name":"國雲新北市青少年圖書館停車場","lat":24.9594373,"lng":121.5108032,"address":"新北市新店區安康路二段151號","type":"parkinglot"},{"name":"日東草屯中山停車場","lat":23.98095,"lng":120.682888,"address":"南投縣草屯鎮明正里敦和路10號","type":"parkinglot"},{"name":"和雲台北忠誠二停車場","lat":25.1068442,"lng":121.5290178,"address":"台北市士林區德行東路104巷9弄","type":"parkinglot"},{"name":"建國北路高架橋下IA區","lat":25.0636416,"lng":121.5372087,"address":"台北市中山區建國北路三段","type":"parkinglot"},{"name":"社子國小地下停車場","lat":25.0914624,"lng":121.5020533,"address":"台北市士林區延平北路六段308號","type":"parkinglot"},{"name":"龍門國中地下停車場","lat":25.024098,"lng":121.5378524,"address":"台北市大安區建國南路二段269號","type":"parkinglot"},{"name":"和雲台北承德一站","lat":25.0615875,"lng":121.5179236,"address":"台北市大同區承德路二段206號","type":"parkinglot"},{"name":"和雲愛國西路停車場","lat":25.0356641,"lng":121.5086974,"address":"台北市中正區愛國西路42巷2號","type":"parkinglot"},{"name":"竹東停車場","lat":24.7256751,"lng":121.0890044,"address":"新竹縣竹東鎮中豐路二段351號","type":"parkinglot"},{"name":"明倫社會住宅地下停車場","lat":25.072773,"lng":121.519808,"address":"台北市大同區承德路三段285號","type":"parkinglot"},{"name":"市民大道復敦段","lat":25.0449267,"lng":121.5474438,"address":"台北市松山區市民大道四段","type":"parkinglot"},{"name":"國雲竹北廣四廣場停車場","lat":24.8392821,"lng":121.0007878,"address":"新竹縣竹北市華興街216號","type":"parkinglot"},{"name":"和雲中正長興停車場","lat":24.93078955978171,"lng":121.28436007737231,"address":"桃園市八德區中正路36號對面","type":"parkinglot"},{"name":"社園立體停車場","lat":25.0896327,"lng":121.50603369999999,"address":"台北市士林區延平北路六段180號","type":"parkinglot"},{"name":"詮營高島屋場","lat":25.1111329,"lng":121.5309736,"address":"台北市士林區忠誠路二段55號","type":"parkinglot"},{"name":"蓬萊國小地下停車場（太原路入口）","lat":25.056556,"lng":121.516839,"address":"台北市大同區寧夏路35號","type":"parkinglot"},{"name":"和雲東興立體停車場","lat":24.1564492,"lng":120.654281,"address":"台中市西屯區東興路三段332號","type":"parkinglot"},{"name":"和雲LM陽光電城停車場","lat":23.109604,"lng":120.306625,"address":"台南市善化區龍目井路北側","type":"parkinglot"},{"name":"宇永龜山停車場","lat":25.059924,"lng":121.36375190000001,"address":"桃園市龜山區文興路41號","type":"parkinglot"},{"name":"國雲停車三重重陽停車場","lat":25.0572804,"lng":121.4859078,"address":"新北市三重區重陽路一段26巷10號","type":"parkinglot"},{"name":"大龍國小地下停車場","lat":25.0741946,"lng":121.5173249,"address":"台北市大同區哈密街47號","type":"parkinglot"},{"name":"蘭雅公園地下停車場","lat":25.1097425,"lng":121.5294039,"address":"台北市士林區德行東路129巷31號","type":"parkinglot"},{"name":"和雲新北文化二路停車場","lat":25.0799593,"lng":121.3801748,"address":"新北市林口區信義路178-1號","type":"parkinglot"},{"name":"和雲台北知行路停車場","lat":25.1210204,"lng":121.4678214,"address":"台北市北投區知行路260巷3號","type":"parkinglot"},{"name":"臺灣日駐林森機械停車場","lat":25.0607917,"lng":121.5257393,"address":"台北市中山區林森北路477號","type":"parkinglot"},{"name":"臺灣日駐逸寬大安停車場","lat":25.0388395,"lng":121.54394849999994,"address":"台北市大安區復興南路一段219-2號","type":"parkinglot"},{"name":"掃地僧內湖停車場","lat":25.0636365,"lng":121.5815426,"address":"台北市內湖區新湖二路251號","type":"parkinglot"},{"name":"和雲台南成功站停車場","lat":22.9988425,"lng":120.2092073,"address":"台南市北區成功路22巷3號","type":"parkinglot"},{"name":"和雲松榮停車場","lat":24.1819464,"lng":120.7177903,"address":"台中市北屯區松竹二路160號","type":"parkinglot"},{"name":"和雲東和公園停車場","lat":25.1201258,"lng":121.5332081,"address":"台北市士林區天母東路69巷30號","type":"parkinglot"},{"name":"松山高中地下停車場","lat":25.0440074,"lng":121.5637253,"address":"台北市信義區基隆路一段156號","type":"parkinglot"},{"name":"世貿公園地下停車場","lat":25.0577546,"lng":121.6143249,"address":"台北市南港區經貿二路88巷1號","type":"parkinglot"},{"name":"大安森林公園地下停車場信義路出入口","lat":25.0335054,"lng":121.5357,"address":"台北市大安區建國南路二段2號","type":"parkinglot"},{"name":"鼎豐豐田停車場","lat":24.926621,"lng":121.284566,"address":"桃園市八德區中山路177號","type":"parkinglot"},{"name":"和雲桃園水利綜合大樓地下停車場","lat":24.990339,"lng":121.311403,"address":"桃園市桃園區復興路186號","type":"parkinglot"},{"name":"和雲礁溪水景停車場","lat":24.8248791,"lng":121.770927,"address":"宜蘭縣礁溪鄉礁溪路五段32號","type":"parkinglot"},{"name":"詮營新莊君泰場","lat":25.0276853,"lng":121.41481529999999,"address":"新北市新莊區雙鳳路77巷2號","type":"parkinglot"},{"name":"市民大道建復段","lat":25.0447147,"lng":121.5405702,"address":"台北市中山區市民大道三段","type":"parkinglot"},{"name":"全方位停車場東勇站","lat":24.9653863,"lng":121.3070165,"address":"桃園市八德區東勇北街295號","type":"parkinglot"},{"name":"玉成國小地下停車場","lat":25.0531753,"lng":121.5926419,"address":"台北市南港區昆陽街23號","type":"parkinglot"},{"name":"全方位停車場同安二站","lat":25.016634,"lng":121.303003,"address":"桃園市桃園區同安街322號","type":"parkinglot"},{"name":"信義南停車場B","lat":24.129503,"lng":120.677127,"address":"台中市南區信義南街191號旁空地","type":"parkinglot"},{"name":"和雲勞工公園停車場","lat":22.6505915,"lng":120.3584873,"address":"台湾高雄市鳥松區大埤路117號","type":"parkinglot"},{"name":"建國南路高架橋下A區","lat":25.0279249,"lng":121.5379784,"address":"台北市大安區建國南路二段171號","type":"parkinglot"},{"name":"詮營停車三重站","lat":25.077343,"lng":121.4870763,"address":"新北市三重區三和路4段107之1號","type":"parkinglot"},{"name":"和雲南崁聯福停車場","lat":25.0509714,"lng":121.2877144,"address":"桃園市蘆竹區聯福街2巷10號","type":"parkinglot"},{"name":"國雲停車南門市場停車場","lat":24.9916902,"lng":121.3062453,"address":"桃園市桃園區三民路三段317號","type":"parkinglot"},{"name":"嘟嘟房市民大道林金段停車場","lat":25.0476678,"lng":121.5257194,"address":"台北市中山區市民大道二段","type":"parkinglot"},{"name":"三張里公園地下停車場","lat":25.0305704,"lng":121.5669333,"address":"台北市信義區松平路81號","type":"parkinglot"},{"name":"萬華車站地下停車場","lat":25.033533,"lng":121.499467,"address":"台北市萬華區康定路382號","type":"parkinglot"},{"name":"國雲停車豐原停車場","lat":24.2516389,"lng":120.7166614,"address":"台中市豐原區中正路261號","type":"parkinglot"},{"name":"國雲停車景豐街臨時平面停車場","lat":25.0021314,"lng":121.5445277,"address":"台北市文山區景豐街79號","type":"parkinglot"},{"name":"詮營高雄福山場","lat":22.6833588,"lng":120.3161417,"address":"高雄市左營區重信路35號","type":"parkinglot"},{"name":"興平停車場","lat":24.1533909,"lng":120.7192044,"address":"台中市太平區樹孝路274巷28號","type":"parkinglot"},{"name":"市民大道敦延段","lat":25.0447964,"lng":121.5507256,"address":"台北市松山區市民大道四段","type":"parkinglot"},{"name":"亞洲大學現代美術館停車場","lat":24.045903,"lng":120.688135,"address":"台中市霧峰區柳豐路500號","type":"parkinglot"},{"name":"嘟嘟房七星公園站","lat":25.1366828,"lng":121.5021627,"address":"台北市北投區七星街3號","type":"parkinglot"},{"name":"青年公園棒球場地下停車場","lat":25.0238277,"lng":121.5027651,"address":"台北市萬華區青年路69號","type":"parkinglot"},{"name":"大安高工地下停車場","lat":25.0327172,"lng":121.54098410000006,"address":"台北市大安區信義路三段166巷6弄12號","type":"parkinglot"},{"name":"松壽廣場地下停車場","lat":25.0369973,"lng":121.5663824,"address":"台北市信義區松智路75號","type":"parkinglot"},{"name":"捷運海山站轉乘停車場","lat":24.9870924,"lng":121.4491102,"address":"新北市土城區海山路39號","type":"parkinglot"},{"name":"和雲桃園興仁路停車場","lat":24.925668,"lng":121.282612,"address":"桃園市八德區興仁路60號對面","type":"parkinglot"},{"name":"承德公園地下停車場","lat":25.089996,"lng":121.522481,"address":"台北市士林區基河路150號","type":"parkinglot"},{"name":"和雲軍福停車場","lat":24.1782675,"lng":120.7153607,"address":"台中市北屯區松竹三路2號","type":"parkinglot"},{"name":"全方位停車場正光站","lat":24.998845,"lng":121.294884,"address":"桃園市桃園區正光路300號對面","type":"parkinglot"},{"name":"文強汐止民權停車場","lat":25.047076,"lng":121.619614,"address":"新北市汐止區民權街二段109巷11弄","type":"parkinglot"},{"name":"詮營停車永康大橋","lat":23.0191717,"lng":120.2238803,"address":"台南市永康區正新街1號","type":"parkinglot"},{"name":"和雲新莊昌德停車場","lat":25.055175,"lng":121.4556368,"address":"新北市新莊區昌德街30號","type":"parkinglot"},{"name":"詮營高雄青海場","lat":22.6513825,"lng":120.2854768,"address":"高雄市鼓山區青海路277號","type":"parkinglot"},{"name":"和雲高雄前峰停車場","lat":22.6667336,"lng":120.2822643,"address":"高雄市鼓山區銘傳路123號","type":"parkinglot"},{"name":"和雲台中復興路四段二站","lat":24.1367916,"lng":120.6886335,"address":"台中市東區復興路四段238號","type":"parkinglot"},{"name":"國雲停車銀河廣場地下停車場","lat":24.9617105,"lng":121.2237451,"address":"桃園市中壢區興南里九和一街35號","type":"parkinglot"},{"name":"建國北路高架橋下C區","lat":25.0530618,"lng":121.5365566,"address":"台北市中山區建國北路二段34號","type":"parkinglot"},{"name":"和雲北安站","lat":25.0794239,"lng":121.5409686,"address":"台北市中山區北安路與北安路400巷交叉路口","type":"parkinglot"},{"name":"國雲停車鴻金寶停車場","lat":25.023206,"lng":121.424402,"address":"新北市新莊區民安路188巷5號","type":"parkinglot"},{"name":"和雲淡水關渡停車場","lat":25.1298401,"lng":121.4620168,"address":"251新北市淡水區自強路108-1號","type":"parkinglot"},{"name":"國雲停車三重天台停車場","lat":25.0614713,"lng":121.4977368,"address":"新北市三重區重新路二段78號","type":"parkinglot"},{"name":"和雲基隆七堵停車場","lat":25.0957421,"lng":121.7140953,"address":"206基隆市七堵區光明路122號","type":"parkinglot"},{"name":"民有市場地下停車場","lat":25.0608335,"lng":121.54665,"address":"台北市松山區民權東路三段140巷15號","type":"parkinglot"},{"name":"詮營恩主公場","lat":24.9385974,"lng":121.3631853,"address":"新北市三峽區復興路399號","type":"parkinglot"},{"name":"信義南停車場A","lat":24.129252,"lng":120.677412,"address":"台中市南區信義南街191號旁空地","type":"parkinglot"},{"name":"詮營士林特力場","lat":25.0921344,"lng":121.5209163,"address":"台北市士林區基河路258號","type":"parkinglot"},{"name":"和雲台中高鐵站停車場","lat":24.1141512,"lng":120.6148359,"address":"台中市烏日區高鐵三路198號","type":"parkinglot"},{"name":"和雲新北中和建八路停車場","lat":24.9985928,"lng":121.4873933,"address":"新北市中和區建八路28號","type":"parkinglot"},{"name":"詮營烏日二站場","lat":24.1162331,"lng":120.6165703,"address":"台中市烏日區高鐵五路","type":"parkinglot"},{"name":"辛亥國小地下停車場","lat":25.005967,"lng":121.558493,"address":"台北市文山區辛亥路四段103號","type":"parkinglot"},{"name":"國雲竹北停九停車場","lat":24.8158053,"lng":121.0198534,"address":"新竹縣竹北市莊敬南路121號","type":"parkinglot"},{"name":"揚雅立體停車場","lat":25.0673918,"lng":121.5158236,"address":"臺北市大同區大龍街136號","type":"parkinglot"},{"name":"和雲新北大忠街停車場","lat":25.1773121,"lng":121.4461729,"address":"新北市淡水區大忠街66-6號旁","type":"parkinglot"},{"name":"文強板橋長江路D區停車場","lat":25.03038,"lng":121.45859,"address":"新北市板橋區環河西路四段旁空地","type":"parkinglot"},{"name":"建國南路高架橋下G區","lat":25.036891,"lng":121.537528,"address":"台北市大安區建國南路一段258號","type":"parkinglot"},{"name":"和雲台北廣州街停車場","lat":25.035756,"lng":121.5083087,"address":"台北市中正區廣州街15號","type":"parkinglot"},{"name":"明德平面停車場","lat":25.115408,"lng":121.520792,"address":"台北市北投區明德路315號對面","type":"parkinglot"},{"name":"信義國小地下停車場","lat":25.0319243,"lng":121.56331210000008,"address":"台北市信義區松勤街60號","type":"parkinglot"},{"name":"台中復興路停車場","lat":24.135331,"lng":120.686662,"address":"台中市東區復興路四段138巷","type":"parkinglot"},{"name":"林森公園地下停車場","lat":25.0530086,"lng":121.5273817,"address":"台北市中山區南京東路一段35號","type":"parkinglot"},{"name":"南雅西路環河停車場","lat":25.012984,"lng":121.451352,"address":"新北市板橋區南雅西路二段175巷16號","type":"parkinglot"},{"name":"國雲停車站前西平面停車場","lat":25.0097016,"lng":121.2159437,"address":"桃園市中壢區高鐵站前西路一段212號","type":"parkinglot"},{"name":"建國北路高架橋下F區","lat":25.0569521,"lng":121.5369174,"address":"台北市中山區建國北路二段73號","type":"parkinglot"},{"name":"景美國小地下停車場","lat":24.9884485,"lng":121.5402195,"address":"台北市文山區景文街142巷2號","type":"parkinglot"},{"name":"和雲台北中山市場停車場","lat":25.0506375,"lng":121.5209898,"address":"台北市中山區長安西路3號","type":"parkinglot"},{"name":"詮營高雄民權場","lat":22.608345,"lng":120.315555,"address":"高雄市前鎮區泰山街1號","type":"parkinglot"},{"name":"和雲基隆信一路停車場","lat":25.1285744,"lng":121.7514361,"address":"基隆市信義區信一路73號","type":"parkinglot"},{"name":"動物園河川高灘地堤外停車場","lat":24.9981523,"lng":121.5797439,"address":"台北市文山區新光路2段2號","type":"parkinglot"},{"name":"國雲停車至誠場","lat":25.1018918,"lng":121.531541,"address":"台北市士林區至誠路一段295號","type":"parkinglot"},{"name":"明大停車場","lat":23.073293,"lng":120.29013,"address":"台南市新市區信義街15之2號對面","type":"parkinglot"},{"name":"建國北路高架橋下E區","lat":25.0570543,"lng":121.5366341,"address":"台北市中山區建國北路二段92號","type":"parkinglot"},{"name":"國雲停車三福街平面停車場","lat":24.9985337,"lng":121.5431286,"address":"台北市文山區景隆街107號","type":"parkinglot"},{"name":"木柵社會住宅地下停車場","lat":24.989332,"lng":121.566623,"address":"台北市文山區久康街24巷36號","type":"parkinglot"},{"name":"建國北路高架橋下G區","lat":25.0596956,"lng":121.5366972,"address":"台北市中山區建國北路二段188號","type":"parkinglot"}]}